station_id,complex_id,gtfs_stop_id,division,line,station_name,borough_name,daytime_routes,structure,north_direction_label,south_direction_label,station_lat,station_lon,station_geom
1,1,R01,BMT,Astoria,Astoria - Ditmars Blvd,Queens,N W,Elevated,,Manhattan,40.775036,-73.912034,POINT(-73.912034 40.775036)
2,2,R03,BMT,Astoria,Astoria Blvd,Queens,N W,Elevated,Ditmars Blvd,Manhattan,40.770258,-73.917843,POINT(-73.917843 40.770258)
3,3,R04,BMT,Astoria,30 Av,Queens,N W,Elevated,Astoria - Ditmars Blvd,Manhattan,40.766779,-73.921479,POINT(-73.921479 40.766779)
4,4,R05,BMT,Astoria,Broadway,Queens,N W,Elevated,Astoria - Ditmars Blvd,Manhattan,40.76182,-73.925508,POINT(-73.925508 40.76182)
5,5,R06,BMT,Astoria,36 Av,Queens,N W,Elevated,Astoria - Ditmars Blvd,Manhattan,40.756804,-73.929575,POINT(-73.929575 40.756804)
6,6,R08,BMT,Astoria,39 Av,Queens,N W,Elevated,Astoria - Ditmars Blvd,Manhattan,40.752882,-73.932755,POINT(-73.932755 40.752882)
7,613,R11,BMT,Astoria,Lexington Av/59 St,Manhattan,N W R,Subway,Queens,Downtown & Brooklyn,40.76266,-73.967258,POINT(-73.967258 40.76266)
8,8,R13,BMT,Astoria,5 Av/59 St,Manhattan,N W R,Subway,Queens,Downtown & Brooklyn,40.764811,-73.973347,POINT(-73.973347 40.764811)
9,9,R14,BMT,Broadway - Brighton,57 St - 7 Av,Manhattan,N Q R W,Subway,Uptown & Queens,Downtown & Brooklyn,40.764664,-73.980658,POINT(-73.980658 40.764664)
10,10,R15,BMT,Broadway - Brighton,49 St,Manhattan,N R W,Subway,Uptown & Queens,Downtown & Brooklyn,40.759901,-73.984139,POINT(-73.984139 40.759901)
11,611,R16,BMT,Broadway - Brighton,Times Sq - 42 St,Manhattan,N Q R W,Subway,Uptown & Queens,Downtown & Brooklyn,40.754672,-73.986754,POINT(-73.986754 40.754672)
12,607,R17,BMT,Broadway - Brighton,34 St - Herald Sq,Manhattan,N Q R W,Subway,Uptown & Queens,Downtown & Brooklyn,40.749567,-73.98795,POINT(-73.98795 40.749567)
13,13,R18,BMT,Broadway - Brighton,28 St,Manhattan,R W,Subway,Uptown & Queens,Downtown & Brooklyn,40.745494,-73.988691,POINT(-73.988691 40.745494)
14,14,R19,BMT,Broadway - Brighton,23 St,Manhattan,R W,Subway,Uptown & Queens,Downtown & Brooklyn,40.741303,-73.989344,POINT(-73.989344 40.741303)
15,602,R20,BMT,Broadway - Brighton,14 St - Union Sq,Manhattan,N Q R W,Subway,Uptown & Queens,Downtown & Brooklyn,40.735736,-73.990568,POINT(-73.990568 40.735736)
16,16,R21,BMT,Broadway - Brighton,8 St - NYU,Manhattan,R W,Subway,Uptown & Queens,Downtown & Brooklyn,40.730328,-73.992629,POINT(-73.992629 40.730328)
17,17,R22,BMT,Broadway - Brighton,Prince St,Manhattan,R W,Subway,Uptown & Queens,Downtown & Brooklyn,40.724329,-73.997702,POINT(-73.997702 40.724329)
18,623,R23,BMT,Broadway,Canal St,Manhattan,R W,Subway,Uptown & Queens,Downtown & Brooklyn,40.719527,-74.001775,POINT(-74.001775 40.719527)
19,623,Q01,BMT,Manhattan Bridge,Canal St,Manhattan,N Q,Subway,Uptown & Queens,Downtown & Brooklyn,40.718383,-74.00046,POINT(-74.00046 40.718383)
20,20,R24,BMT,Broadway,City Hall,Manhattan,R W,Subway,Uptown & Queens,Downtown & Brooklyn,40.713282,-74.006978,POINT(-74.006978 40.713282)
21,624,R25,BMT,Broadway,Cortlandt St,Manhattan,R W,Subway,Uptown & Queens,Downtown & Brooklyn,40.710668,-74.011029,POINT(-74.011029 40.710668)
22,22,R26,BMT,Broadway,Rector St,Manhattan,R W,Subway,Uptown & Queens,Downtown & Brooklyn,40.70722,-74.013342,POINT(-74.013342 40.70722)
23,635,R27,BMT,Broadway,Whitehall St,Manhattan,R W,Subway,Uptown & Queens,Brooklyn,40.703087,-74.012994,POINT(-74.012994 40.703087)
24,620,R28,BMT,Broadway,Court St,Brooklyn,R,Subway,Manhattan,Bay Ridge - 95 St,40.6941,-73.991777,POINT(-73.991777 40.6941)
25,636,R29,BMT,Broadway,Jay St - MetroTech,Brooklyn,R,Subway,Manhattan,Bay Ridge - 95 St,40.69218,-73.985942,POINT(-73.985942 40.69218)
26,26,R30,BMT,Broadway - Brighton,DeKalb Av,Brooklyn,B Q R,Subway,Manhattan,Coney Island - Bay Ridge,40.690635,-73.981824,POINT(-73.981824 40.690635)
27,617,R31,BMT,4th Av,Atlantic Av - Barclays Ctr,Brooklyn,D N R,Subway,Manhattan,Coney Island - Bay Ridge,40.683666,-73.97881,POINT(-73.97881 40.683666)
28,28,R32,BMT,4th Av,Union St,Brooklyn,R,Subway,Manhattan,Bay Ridge - 95 St,40.677316,-73.98311,POINT(-73.98311 40.677316)
29,608,R33,BMT,4th Av,9 St,Brooklyn,R,Subway,Manhattan,Bay Ridge - 95 St,40.670847,-73.988302,POINT(-73.988302 40.670847)
30,30,R34,BMT,4th Av,Prospect Av,Brooklyn,R,Subway,Manhattan,Bay Ridge - 95 St,40.665414,-73.992872,POINT(-73.992872 40.665414)
31,31,R35,BMT,4th Av,25 St,Brooklyn,R,Subway,Manhattan,Bay Ridge - 95 St,40.660397,-73.998091,POINT(-73.998091 40.660397)
32,32,R36,BMT,4th Av,36 St,Brooklyn,D N R,Subway,Manhattan,Coney Island - Bay Ridge,40.655144,-74.003549,POINT(-74.003549 40.655144)
33,33,R39,BMT,4th Av,45 St,Brooklyn,R,Subway,Manhattan,Bay Ridge - 95 St,40.648939,-74.010006,POINT(-74.010006 40.648939)
34,34,R40,BMT,4th Av,53 St,Brooklyn,R,Subway,Manhattan,Bay Ridge - 95 St,40.645069,-74.014034,POINT(-74.014034 40.645069)
35,35,R41,BMT,4th Av,59 St,Brooklyn,N R,Subway,Manhattan,Coney Island - Bay Ridge,40.641362,-74.017881,POINT(-74.017881 40.641362)
36,36,R42,BMT,4th Av,Bay Ridge Av,Brooklyn,R,Subway,Manhattan,95 St,40.634967,-74.023377,POINT(-74.023377 40.634967)
37,37,R43,BMT,4th Av,77 St,Brooklyn,R,Subway,Manhattan,95 St,40.629742,-74.02551,POINT(-74.02551 40.629742)
38,38,R44,BMT,4th Av,86 St,Brooklyn,R,Subway,Manhattan,95 St,40.622687,-74.028398,POINT(-74.028398 40.622687)
39,39,R45,BMT,4th Av,Bay Ridge - 95 St,Brooklyn,R,Subway,Manhattan,,40.616622,-74.030876,POINT(-74.030876 40.616622)
40,617,D24,BMT,Broadway - Brighton,Atlantic Av - Barclays Ctr,Brooklyn,B Q,Subway,Manhattan,Brighton Beach & Coney Island,40.68446,-73.97689,POINT(-73.97689 40.68446)
41,41,D25,BMT,Broadway - Brighton,7 Av,Brooklyn,B Q,Subway,Manhattan,Brighton Beach & Coney Island,40.67705,-73.972367,POINT(-73.972367 40.67705)
42,42,D26,BMT,Broadway - Brighton,Prospect Park,Brooklyn,B Q,Open Cut,Manhattan & Franklin Av,Brighton Beach & Coney Island,40.661614,-73.962246,POINT(-73.962246 40.661614)
43,43,D27,BMT,Broadway - Brighton,Parkside Av,Brooklyn,B Q,Open Cut,Manhattan,Brighton Beach & Coney Island,40.655292,-73.961495,POINT(-73.961495 40.655292)
44,44,D28,BMT,Broadway - Brighton,Church Av,Brooklyn,B Q,Open Cut,Manhattan,Brighton Beach & Coney Island,40.650527,-73.962982,POINT(-73.962982 40.650527)
45,45,D29,BMT,Broadway - Brighton,Beverley Rd,Brooklyn,B Q,Open Cut,Manhattan,Brighton Beach & Coney Island,40.644031,-73.964492,POINT(-73.964492 40.644031)
46,46,D30,BMT,Broadway - Brighton,Cortelyou Rd,Brooklyn,B Q,Open Cut,Manhattan,Brighton Beach & Coney Island,40.640927,-73.963891,POINT(-73.963891 40.640927)
47,47,D31,BMT,Broadway - Brighton,Newkirk Plaza,Brooklyn,B Q,Open Cut,Manhattan,Brighton Beach & Coney Island,40.635082,-73.962793,POINT(-73.962793 40.635082)
48,48,D32,BMT,Broadway - Brighton,Avenue H,Brooklyn,B Q,Open Cut,Manhattan,Brighton Beach & Coney Island,40.62927,-73.961639,POINT(-73.961639 40.62927)
49,49,D33,BMT,Broadway - Brighton,Avenue J,Brooklyn,B Q,Open Cut,Manhattan,Brighton Beach & Coney Island,40.625039,-73.960803,POINT(-73.960803 40.625039)
50,50,D34,BMT,Broadway - Brighton,Avenue M,Brooklyn,B Q,Open Cut,Manhattan,Brighton Beach & Coney Island,40.617618,-73.959399,POINT(-73.959399 40.617618)
51,51,D35,BMT,Broadway - Brighton,Kings Hwy,Brooklyn,B Q,Open Cut,Manhattan,Brighton Beach & Coney Island,40.60867,-73.957734,POINT(-73.957734 40.60867)
52,52,D37,BMT,Broadway - Brighton,Avenue U,Brooklyn,B Q,Open Cut,Manhattan,Brighton Beach & Coney Island,40.5993,-73.955929,POINT(-73.955929 40.5993)
53,53,D38,BMT,Broadway - Brighton,Neck Rd,Brooklyn,B Q,Open Cut,Manhattan,Brighton Beach & Coney Island,40.595246,-73.955161,POINT(-73.955161 40.595246)
54,54,D39,BMT,Broadway - Brighton,Sheepshead Bay,Brooklyn,B Q,Open Cut,Manhattan,Brighton Beach & Coney Island,40.586896,-73.954155,POINT(-73.954155 40.586896)
55,55,D40,BMT,Broadway - Brighton,Brighton Beach,Brooklyn,B Q,Elevated,Manhattan,Coney Island,40.577621,-73.961376,POINT(-73.961376 40.577621)
56,56,D41,BMT,Broadway - Brighton,Ocean Pkwy,Brooklyn,Q,Elevated,Manhattan,Stillwell Av,40.576312,-73.968501,POINT(-73.968501 40.576312)
57,57,D42,BMT,Broadway - Brighton,W 8 St - NY Aquarium,Brooklyn,F Q,Elevated,Manhattan,Stillwell Av,40.576127,-73.975939,POINT(-73.975939 40.576127)
58,58,D43,BMT,Sea Beach / West End / Culver / Brighton,Coney Island - Stillwell Av,Brooklyn,D F N Q,Viaduct,Manhattan,,40.577422,-73.981233,POINT(-73.981233 40.577422)
59,59,B12,BMT,West End,9 Av,Brooklyn,D,Open Cut,Manhattan,Coney Island,40.646292,-73.994324,POINT(-73.994324 40.646292)
60,60,B13,BMT,West End,Fort Hamilton Pkwy,Brooklyn,D,Elevated,Manhattan,Coney Island,40.640914,-73.994304,POINT(-73.994304 40.640914)
61,61,B14,BMT,West End,50 St,Brooklyn,D,Elevated,Manhattan,Coney Island,40.63626,-73.994791,POINT(-73.994791 40.63626)
62,62,B15,BMT,West End,55 St,Brooklyn,D,Elevated,Manhattan,Coney Island,40.631435,-73.995476,POINT(-73.995476 40.631435)
63,615,B16,BMT,West End,62 St,Brooklyn,D,Elevated,Manhattan,Coney Island,40.626472,-73.996895,POINT(-73.996895 40.626472)
64,64,B17,BMT,West End,71 St,Brooklyn,D,Elevated,Manhattan,Coney Island,40.619589,-73.998864,POINT(-73.998864 40.619589)
65,65,B18,BMT,West End,79 St,Brooklyn,D,Elevated,Manhattan,Coney Island,40.613501,-74.00061,POINT(-74.00061 40.613501)
66,66,B19,BMT,West End,18 Av,Brooklyn,D,Elevated,Manhattan,Coney Island,40.607954,-74.001736,POINT(-74.001736 40.607954)
67,67,B20,BMT,West End,20 Av,Brooklyn,D,Elevated,Manhattan,Coney Island,40.604556,-73.998168,POINT(-73.998168 40.604556)
68,68,B21,BMT,West End,Bay Pkwy,Brooklyn,D,Elevated,Manhattan,Coney Island,40.601875,-73.993728,POINT(-73.993728 40.601875)
69,69,B22,BMT,West End,25 Av,Brooklyn,D,Elevated,Manhattan,Coney Island,40.597704,-73.986829,POINT(-73.986829 40.597704)
70,70,B23,BMT,West End,Bay 50 St,Brooklyn,D,Elevated,Manhattan,Coney Island,40.588841,-73.983765,POINT(-73.983765 40.588841)
71,71,N02,BMT,Sea Beach,8 Av,Brooklyn,N,Open Cut,Manhattan,Coney Island,40.635064,-74.011719,POINT(-74.011719 40.635064)
72,72,N03,BMT,Sea Beach,Fort Hamilton Pkwy,Brooklyn,N,Open Cut,Manhattan,Coney Island,40.631386,-74.005351,POINT(-74.005351 40.631386)
73,615,N04,BMT,Sea Beach,New Utrecht Av,Brooklyn,N,Open Cut,Manhattan,Coney Island,40.624842,-73.996353,POINT(-73.996353 40.624842)
74,74,N05,BMT,Sea Beach,18 Av,Brooklyn,N,Open Cut,Manhattan,Coney Island,40.620671,-73.990414,POINT(-73.990414 40.620671)
75,75,N06,BMT,Sea Beach,20 Av,Brooklyn,N,Open Cut,Manhattan,Coney Island,40.61741,-73.985026,POINT(-73.985026 40.61741)
76,76,N07,BMT,Sea Beach,Bay Pkwy,Brooklyn,N,Open Cut,Manhattan,Coney Island,40.611815,-73.981848,POINT(-73.981848 40.611815)
77,77,N08,BMT,Sea Beach,Kings Hwy,Brooklyn,N,Open Cut,Manhattan,Coney Island,40.603923,-73.980353,POINT(-73.980353 40.603923)
78,78,N09,BMT,Sea Beach,Avenue U,Brooklyn,N,Open Cut,Manhattan,Coney Island,40.597473,-73.979137,POINT(-73.979137 40.597473)
79,79,N10,BMT,Sea Beach,86 St,Brooklyn,N,Open Cut,Manhattan,Coney Island,40.592721,-73.97823,POINT(-73.97823 40.592721)
80,80,J12,BMT,Jamaica,121 St,Queens,J Z,Elevated,Jamaica,Manhattan,40.700492,-73.828294,POINT(-73.828294 40.700492)
81,81,J13,BMT,Jamaica,111 St,Queens,J,Elevated,Jamaica,Manhattan,40.697418,-73.836345,POINT(-73.836345 40.697418)
82,82,J14,BMT,Jamaica,104 St,Queens,J Z,Elevated,Jamaica,Manhattan,40.695178,-73.84433,POINT(-73.84433 40.695178)
83,83,J15,BMT,Jamaica,Woodhaven Blvd,Queens,J Z,Elevated,Jamaica,Manhattan,40.693879,-73.851576,POINT(-73.851576 40.693879)
84,84,J16,BMT,Jamaica,85 St - Forest Pkwy,Queens,J,Elevated,Jamaica,Manhattan,40.692435,-73.86001,POINT(-73.86001 40.692435)
85,85,J17,BMT,Jamaica,75 St,Queens,J Z,Elevated,Jamaica,Manhattan,40.691324,-73.867139,POINT(-73.867139 40.691324)
86,86,J19,BMT,Jamaica,Cypress Hills,Brooklyn,J,Elevated,Jamaica,Manhattan,40.689941,-73.87255,POINT(-73.87255 40.689941)
87,87,J20,BMT,Jamaica,Crescent St,Brooklyn,J Z,Elevated,Jamaica,Manhattan,40.683194,-73.873785,POINT(-73.873785 40.683194)
88,88,J21,BMT,Jamaica,Norwood Av,Brooklyn,J Z,Elevated,Jamaica,Manhattan,40.68141,-73.880039,POINT(-73.880039 40.68141)
89,89,J22,BMT,Jamaica,Cleveland St,Brooklyn,J,Elevated,Jamaica,Manhattan,40.679947,-73.884639,POINT(-73.884639 40.679947)
90,90,J23,BMT,Jamaica,Van Siclen Av,Brooklyn,J Z,Elevated,Jamaica,Manhattan,40.678024,-73.891688,POINT(-73.891688 40.678024)
91,91,J24,BMT,Jamaica,Alabama Av,Brooklyn,J,Elevated,Jamaica,Manhattan,40.676992,-73.898654,POINT(-73.898654 40.676992)
92,621,J27,BMT,Jamaica,Broadway Jct,Brooklyn,J Z,Elevated,Jamaica,Manhattan,40.679498,-73.904512,POINT(-73.904512 40.679498)
93,93,J28,BMT,Jamaica,Chauncey St,Brooklyn,J Z,Elevated,Jamaica,Manhattan,40.682893,-73.910456,POINT(-73.910456 40.682893)
94,94,J29,BMT,Jamaica,Halsey St,Brooklyn,J,Elevated,Jamaica,Manhattan,40.68637,-73.916559,POINT(-73.916559 40.68637)
95,95,J30,BMT,Jamaica,Gates Av,Brooklyn,J Z,Elevated,Jamaica,Manhattan,40.68963,-73.92227,POINT(-73.92227 40.68963)
96,96,J31,BMT,Jamaica,Kosciuszko St,Brooklyn,J,Elevated,Jamaica,Manhattan,40.693342,-73.928814,POINT(-73.928814 40.693342)
97,97,M11,BMT,Jamaica,Myrtle Av,Brooklyn,J M Z,Elevated,Jamaica - Middle Village,Manhattan,40.697207,-73.935657,POINT(-73.935657 40.697207)
98,98,M12,BMT,Jamaica,Flushing Av,Brooklyn,J M,Elevated,Jamaica - Middle Village,Manhattan,40.70026,-73.941126,POINT(-73.941126 40.70026)
99,99,M13,BMT,Jamaica,Lorimer St,Brooklyn,J M,Elevated,Jamaica - Middle Village,Manhattan,40.703869,-73.947408,POINT(-73.947408 40.703869)
100,100,M14,BMT,Jamaica,Hewes St,Brooklyn,J M,Elevated,Jamaica - Middle Village,Manhattan,40.70687,-73.953431,POINT(-73.953431 40.70687)
101,101,M16,BMT,Jamaica,Marcy Av,Brooklyn,J M Z,Elevated,Jamaica - Middle Village,Manhattan,40.708359,-73.957757,POINT(-73.957757 40.708359)
102,625,M18,BMT,Jamaica,Essex St,Manhattan,J M Z,Subway,Brooklyn,Broad St (JZ) - Uptown (M),40.718315,-73.987437,POINT(-73.987437 40.718315)
103,103,M19,BMT,Jamaica,Bowery,Manhattan,J Z,Subway,Brooklyn,Broad St,40.72028,-73.993915,POINT(-73.993915 40.72028)
104,623,M20,BMT,Jamaica,Canal St,Manhattan,J Z,Subway,Brooklyn,Broad St,40.718092,-73.999892,POINT(-73.999892 40.718092)
105,622,M21,BMT,Jamaica,Chambers St,Manhattan,J Z,Subway,Brooklyn,Broad St,40.713243,-74.003401,POINT(-74.003401 40.713243)
106,628,M22,BMT,Jamaica,Fulton St,Manhattan,J Z,Subway,Brooklyn,Broad St,40.710374,-74.007582,POINT(-74.007582 40.710374)
107,107,M23,BMT,Jamaica,Broad St,Manhattan,J Z,Subway,Brooklyn,,40.706476,-74.011056,POINT(-74.011056 40.706476)
108,108,M01,BMT,Myrtle Av,Middle Village - Metropolitan Av,Queens,M,Elevated,Manhattan,,40.711396,-73.889601,POINT(-73.889601 40.711396)
109,109,M04,BMT,Myrtle Av,Fresh Pond Rd,Queens,M,Elevated,Manhattan,Metropolitan Av,40.706186,-73.895877,POINT(-73.895877 40.706186)
110,110,M05,BMT,Myrtle Av,Forest Av,Queens,M,Elevated,Manhattan,Metropolitan Av,40.704423,-73.903077,POINT(-73.903077 40.704423)
111,111,M06,BMT,Myrtle Av,Seneca Av,Queens,M,Elevated,Manhattan,Metropolitan Av,40.702762,-73.90774,POINT(-73.90774 40.702762)
112,630,M08,BMT,Myrtle Av,Myrtle - Wyckoff Avs,Brooklyn,M,Elevated,Manhattan,Metropolitan Av,40.69943,-73.912385,POINT(-73.912385 40.69943)
113,113,M09,BMT,Myrtle Av,Knickerbocker Av,Brooklyn,M,Elevated,Manhattan,Metropolitan Av,40.698664,-73.919711,POINT(-73.919711 40.698664)
114,114,M10,BMT,Myrtle Av,Central Av,Brooklyn,M,Elevated,Manhattan,Metropolitan Av,40.697857,-73.927397,POINT(-73.927397 40.697857)
115,618,L01,BMT,Canarsie,8 Av,Manhattan,L,Subway,,Brooklyn,40.739777,-74.002578,POINT(-74.002578 40.739777)
116,601,L02,BMT,Canarsie,6 Av,Manhattan,L,Subway,8 Av,Brooklyn,40.737335,-73.996786,POINT(-73.996786 40.737335)
117,602,L03,BMT,Canarsie,Union Sq - 14 St,Manhattan,L,Subway,8 Av,Brooklyn,40.734789,-73.99073,POINT(-73.99073 40.734789)
118,118,L05,BMT,Canarsie,3 Av,Manhattan,L,Subway,8 Av,Brooklyn,40.732849,-73.986122,POINT(-73.986122 40.732849)
119,119,L06,BMT,Canarsie,1 Av,Manhattan,L,Subway,8 Av,Brooklyn,40.730953,-73.981628,POINT(-73.981628 40.730953)
120,120,L08,BMT,Canarsie,Bedford Av,Brooklyn,L,Subway,Manhattan,Canarsie - Rockaway Parkway,40.717304,-73.956872,POINT(-73.956872 40.717304)
121,629,L10,BMT,Canarsie,Lorimer St,Brooklyn,L,Subway,Manhattan,Canarsie - Rockaway Parkway,40.714063,-73.950275,POINT(-73.950275 40.714063)
122,122,L11,BMT,Canarsie,Graham Av,Brooklyn,L,Subway,Manhattan,Canarsie - Rockaway Parkway,40.714565,-73.944053,POINT(-73.944053 40.714565)
123,123,L12,BMT,Canarsie,Grand St,Brooklyn,L,Subway,Manhattan,Canarsie - Rockaway Parkway,40.711926,-73.94067,POINT(-73.94067 40.711926)
124,124,L13,BMT,Canarsie,Montrose Av,Brooklyn,L,Subway,Manhattan,Canarsie - Rockaway Parkway,40.707739,-73.93985,POINT(-73.93985 40.707739)
125,125,L14,BMT,Canarsie,Morgan Av,Brooklyn,L,Subway,Manhattan,Canarsie - Rockaway Parkway,40.706152,-73.933147,POINT(-73.933147 40.706152)
126,126,L15,BMT,Canarsie,Jefferson St,Brooklyn,L,Subway,Manhattan,Canarsie - Rockaway Parkway,40.706607,-73.922913,POINT(-73.922913 40.706607)
127,127,L16,BMT,Canarsie,DeKalb Av,Brooklyn,L,Subway,Manhattan,Canarsie - Rockaway Parkway,40.703811,-73.918425,POINT(-73.918425 40.703811)
128,630,L17,BMT,Canarsie,Myrtle - Wyckoff Avs,Brooklyn,L,Subway,Manhattan,Canarsie - Rockaway Parkway,40.699814,-73.911586,POINT(-73.911586 40.699814)
129,129,L19,BMT,Canarsie,Halsey St,Queens,L,Subway,Manhattan,Canarsie - Rockaway Parkway,40.695602,-73.904084,POINT(-73.904084 40.695602)
130,130,L20,BMT,Canarsie,Wilson Av,Brooklyn,L,Subway,Manhattan,Canarsie - Rockaway Parkway,40.688764,-73.904046,POINT(-73.904046 40.688764)
131,131,L21,BMT,Canarsie,Bushwick Av - Aberdeen St,Brooklyn,L,Subway,Manhattan,Canarsie - Rockaway Parkway,40.682829,-73.905249,POINT(-73.905249 40.682829)
132,621,L22,BMT,Canarsie,Broadway Jct,Brooklyn,L,Elevated,Manhattan,Canarsie - Rockaway Parkway,40.678856,-73.90324,POINT(-73.90324 40.678856)
133,133,L24,BMT,Canarsie,Atlantic Av,Brooklyn,L,Elevated,Manhattan,Canarsie - Rockaway Parkway,40.675345,-73.903097,POINT(-73.903097 40.675345)
134,134,L25,BMT,Canarsie,Sutter Av,Brooklyn,L,Elevated,Manhattan,Canarsie - Rockaway Parkway,40.669367,-73.901975,POINT(-73.901975 40.669367)
135,135,L26,BMT,Canarsie,Livonia Av,Brooklyn,L,Elevated,Manhattan,Canarsie - Rockaway Parkway,40.664038,-73.900571,POINT(-73.900571 40.664038)
136,136,L27,BMT,Canarsie,New Lots Av,Brooklyn,L,Elevated,Manhattan,Canarsie - Rockaway Parkway,40.658733,-73.899232,POINT(-73.899232 40.658733)
137,137,L28,BMT,Canarsie,E 105 St,Brooklyn,L,At Grade,Manhattan,Canarsie - Rockaway Parkway,40.650573,-73.899485,POINT(-73.899485 40.650573)
138,138,L29,BMT,Canarsie,Canarsie - Rockaway Pkwy,Brooklyn,L,At Grade,Manhattan,,40.646654,-73.90185,POINT(-73.90185 40.646654)
139,627,S01,BMT,Franklin Shuttle,Franklin Av,Brooklyn,S,Elevated,,Prospect Park,40.680596,-73.955827,POINT(-73.955827 40.680596)
141,141,S03,BMT,Franklin Shuttle,Park Pl,Brooklyn,S,Open Cut,Franklin Av,Prospect Park,40.674772,-73.957624,POINT(-73.957624 40.674772)
142,626,S04,BMT,Franklin Shuttle,Botanic Garden,Brooklyn,S,Open Cut,Franklin Av,Prospect Park,40.670343,-73.959245,POINT(-73.959245 40.670343)
143,143,A02,IND,8th Av - Fulton St,Inwood - 207 St,Manhattan,A,Subway,,Downtown & Brooklyn,40.868072,-73.919899,POINT(-73.919899 40.868072)
144,144,A03,IND,8th Av - Fulton St,Dyckman St,Manhattan,A,Subway,207 St,Downtown & Brooklyn,40.865491,-73.927271,POINT(-73.927271 40.865491)
145,145,A05,IND,8th Av - Fulton St,190 St,Manhattan,A,Subway,207 St,Downtown & Brooklyn,40.859022,-73.93418,POINT(-73.93418 40.859022)
146,146,A06,IND,8th Av - Fulton St,181 St,Manhattan,A,Subway,207 St,Downtown & Brooklyn,40.851695,-73.937969,POINT(-73.937969 40.851695)
147,147,A07,IND,8th Av - Fulton St,175 St,Manhattan,A,Subway,207 St,Downtown & Brooklyn,40.847391,-73.939704,POINT(-73.939704 40.847391)
148,605,A09,IND,8th Av - Fulton St,168 St,Manhattan,A C,Subway,207 St,Downtown & Brooklyn,40.840719,-73.939561,POINT(-73.939561 40.840719)
149,149,A10,IND,8th Av - Fulton St,163 St - Amsterdam Av,Manhattan,C,Subway,Uptown,Downtown & Brooklyn,40.836013,-73.939892,POINT(-73.939892 40.836013)
150,150,A11,IND,8th Av - Fulton St,155 St,Manhattan,C,Subway,Uptown,Downtown & Brooklyn,40.830518,-73.941514,POINT(-73.941514 40.830518)
151,151,D13,IND,Concourse,145 St,Manhattan,B D,Subway,Uptown & The Bronx,Downtown & Brooklyn,40.824783,-73.944216,POINT(-73.944216 40.824783)
151,151,A12,IND,8th Av - Fulton St,145 St,Manhattan,A C,Subway,Uptown & The Bronx,Downtown & Brooklyn,40.824783,-73.944216,POINT(-73.944216 40.824783)
152,152,A14,IND,8th Av - Fulton St,135 St,Manhattan,B C,Subway,Uptown & The Bronx,Downtown & Brooklyn,40.817894,-73.947649,POINT(-73.947649 40.817894)
153,153,A15,IND,8th Av - Fulton St,125 St,Manhattan,A B C D,Subway,Uptown & The Bronx,Downtown & Brooklyn,40.811109,-73.952343,POINT(-73.952343 40.811109)
154,154,A16,IND,8th Av - Fulton St,116 St,Manhattan,B C,Subway,Uptown & The Bronx,Downtown & Brooklyn,40.805085,-73.954882,POINT(-73.954882 40.805085)
155,155,A17,IND,8th Av - Fulton St,Cathedral Pkwy (110 St),Manhattan,B C,Subway,Uptown & The Bronx,Downtown & Brooklyn,40.800603,-73.958161,POINT(-73.958161 40.800603)
156,156,A18,IND,8th Av - Fulton St,103 St,Manhattan,B C,Subway,Uptown & The Bronx,Downtown & Brooklyn,40.796092,-73.961454,POINT(-73.961454 40.796092)
157,157,A19,IND,8th Av - Fulton St,96 St,Manhattan,B C,Subway,Uptown & The Bronx,Downtown & Brooklyn,40.791642,-73.964696,POINT(-73.964696 40.791642)
158,158,A20,IND,8th Av - Fulton St,86 St,Manhattan,B C,Subway,Uptown & The Bronx,Downtown & Brooklyn,40.785868,-73.968916,POINT(-73.968916 40.785868)
159,159,A21,IND,8th Av - Fulton St,81 St - Museum of Natural History,Manhattan,B C,Subway,Uptown & The Bronx,Downtown & Brooklyn,40.781433,-73.972143,POINT(-73.972143 40.781433)
160,160,A22,IND,8th Av - Fulton St,72 St,Manhattan,B C,Subway,Uptown & The Bronx,Downtown & Brooklyn,40.775594,-73.97641,POINT(-73.97641 40.775594)
161,614,A24,IND,8th Av - Fulton St,59 St - Columbus Circle,Manhattan,A B C D,Subway,Uptown & The Bronx,Downtown & Brooklyn,40.768296,-73.981736,POINT(-73.981736 40.768296)
162,162,A25,IND,8th Av - Fulton St,50 St,Manhattan,C E,Subway,Uptown - Queens,Downtown & Brooklyn,40.762456,-73.985984,POINT(-73.985984 40.762456)
163,611,A27,IND,8th Av - Fulton St,42 St - Port Authority Bus Terminal,Manhattan,A C E,Subway,Uptown - Queens,Downtown & Brooklyn,40.757308,-73.989735,POINT(-73.989735 40.757308)
164,164,A28,IND,8th Av - Fulton St,34 St - Penn Station,Manhattan,A C E,Subway,Uptown - Queens,Downtown & Brooklyn,40.752287,-73.993391,POINT(-73.993391 40.752287)
165,165,A30,IND,8th Av - Fulton St,23 St,Manhattan,C E,Subway,Uptown - Queens,Downtown & Brooklyn,40.745906,-73.998041,POINT(-73.998041 40.745906)
166,618,A31,IND,8th Av - Fulton St,14 St,Manhattan,A C E,Subway,Uptown - Queens,Downtown & Brooklyn,40.740893,-74.00169,POINT(-74.00169 40.740893)
167,167,D20,IND,6th Av - Culver,W 4 St,Manhattan,B D F M,Subway,Uptown - Queens,Downtown & Brooklyn,40.732338,-74.000495,POINT(-74.000495 40.732338)
167,167,A32,IND,8th Av - Fulton St,W 4 St,Manhattan,A C E,Subway,Uptown - Queens,Downtown & Brooklyn,40.732338,-74.000495,POINT(-74.000495 40.732338)
168,168,A33,IND,8th Av - Fulton St,Spring St,Manhattan,C E,Subway,Uptown - Queens,Downtown & Brooklyn,40.726227,-74.003739,POINT(-74.003739 40.726227)
169,169,A34,IND,8th Av - Fulton St,Canal St,Manhattan,A C E,Subway,Uptown - Queens,Downtown & Brooklyn,40.720824,-74.005229,POINT(-74.005229 40.720824)
170,624,A36,IND,8th Av - Fulton St,Chambers St,Manhattan,A C,Subway,Uptown,Downtown & Brooklyn,40.714111,-74.008585,POINT(-74.008585 40.714111)
171,624,E01,IND,8th Av - Fulton St,World Trade Center,Manhattan,E,Subway,Uptown & Queens,,40.712582,-74.009781,POINT(-74.009781 40.712582)
172,628,A38,IND,8th Av - Fulton St,Fulton St,Manhattan,A C,Subway,Uptown,Brooklyn,40.710197,-74.007691,POINT(-74.007691 40.710197)
173,173,A40,IND,8th Av - Fulton St,High St,Brooklyn,A C,Subway,Manhattan,Euclid - Lefferts - Rockaways,40.699337,-73.990531,POINT(-73.990531 40.699337)
174,636,A41,IND,8th Av - Fulton St,Jay St - MetroTech,Brooklyn,A C F,Subway,Manhattan,Euclid - Lefferts - Rockaways - Coney Island,40.692338,-73.987342,POINT(-73.987342 40.692338)
175,175,A42,IND,8th Av - Fulton St,Hoyt - Schermerhorn Sts,Brooklyn,A C G,Subway,Manhattan - Church Av,Euclid Av & Queens - Court Sq,40.688484,-73.985001,POINT(-73.985001 40.688484)
176,176,A43,IND,8th Av - Fulton St,Lafayette Av,Brooklyn,C,Subway,Manhattan,Euclid Av,40.686113,-73.973946,POINT(-73.973946 40.686113)
177,177,A44,IND,8th Av - Fulton St,Clinton - Washington Avs,Brooklyn,C,Subway,Manhattan,Euclid Av,40.683263,-73.965838,POINT(-73.965838 40.683263)
178,627,A45,IND,8th Av - Fulton St,Franklin Av,Brooklyn,C,Subway,Manhattan,Euclid Av,40.68138,-73.956848,POINT(-73.956848 40.68138)
179,179,A46,IND,8th Av - Fulton St,Nostrand Av,Brooklyn,A C,Subway,Manhattan,Euclid - Lefferts - Rockaways,40.680438,-73.950426,POINT(-73.950426 40.680438)
180,180,A47,IND,8th Av - Fulton St,Kingston - Throop Avs,Brooklyn,C,Subway,Manhattan,Euclid Av,40.679921,-73.940858,POINT(-73.940858 40.679921)
181,181,A48,IND,8th Av - Fulton St,Utica Av,Brooklyn,A C,Subway,Manhattan,Euclid - Lefferts - Rockaways,40.679364,-73.930729,POINT(-73.930729 40.679364)
182,182,A49,IND,8th Av - Fulton St,Ralph Av,Brooklyn,C,Subway,Manhattan,Euclid Av,40.678822,-73.920786,POINT(-73.920786 40.678822)
183,183,A50,IND,8th Av - Fulton St,Rockaway Av,Brooklyn,C,Subway,Manhattan,Euclid Av,40.67834,-73.911946,POINT(-73.911946 40.67834)
184,621,A51,IND,8th Av - Fulton St,Broadway Jct,Brooklyn,A C,Subway,Manhattan,Euclid - Lefferts - Rockaways,40.678334,-73.905316,POINT(-73.905316 40.678334)
185,185,A52,IND,8th Av - Fulton St,Liberty Av,Brooklyn,C,Subway,Manhattan,Euclid Av,40.674542,-73.896548,POINT(-73.896548 40.674542)
186,186,A53,IND,8th Av - Fulton St,Van Siclen Av,Brooklyn,C,Subway,Manhattan,Euclid Av,40.67271,-73.890358,POINT(-73.890358 40.67271)
187,187,A54,IND,8th Av - Fulton St,Shepherd Av,Brooklyn,C,Subway,Manhattan,Euclid Av,40.67413,-73.88075,POINT(-73.88075 40.67413)
188,188,A55,IND,8th Av - Fulton St,Euclid Av,Brooklyn,A C,Subway,Manhattan,Lefferts - Rockaways,40.675377,-73.872106,POINT(-73.872106 40.675377)
189,189,A57,IND,Liberty Av,Grant Av,Brooklyn,A,Subway,Manhattan,Lefferts - Rockaways,40.677044,-73.86505,POINT(-73.86505 40.677044)
190,190,A59,IND,Liberty Av,80 St,Queens,A,Elevated,Manhattan,Lefferts - Rockaways,40.679371,-73.858992,POINT(-73.858992 40.679371)
191,191,A60,IND,Liberty Av,88 St,Queens,A,Elevated,Manhattan,Lefferts - Rockaways,40.679843,-73.85147,POINT(-73.85147 40.679843)
192,192,A61,IND,Liberty Av,Rockaway Blvd,Queens,A,Elevated,Manhattan,Lefferts - Rockaways,40.680429,-73.843853,POINT(-73.843853 40.680429)
193,193,A63,IND,Liberty Av,104 St,Queens,A,Elevated,Manhattan,Lefferts Blvd,40.681711,-73.837683,POINT(-73.837683 40.681711)
194,194,A64,IND,Liberty Av,111 St,Queens,A,Elevated,Manhattan,Lefferts Blvd,40.684331,-73.832163,POINT(-73.832163 40.684331)
195,195,A65,IND,Liberty Av,Ozone Park - Lefferts Blvd,Queens,A,Elevated,Manhattan,,40.685951,-73.825798,POINT(-73.825798 40.685951)
196,196,H01,IND,Rockaway,Aqueduct Racetrack,Queens,A,At Grade,Manhattan,Rockaways,40.672097,-73.835919,POINT(-73.835919 40.672097)
197,197,H02,IND,Rockaway,Aqueduct - N Conduit Av,Queens,A,At Grade,Manhattan,Rockaways,40.668234,-73.834058,POINT(-73.834058 40.668234)
198,198,H03,IND,Rockaway,Howard Beach - JFK Airport,Queens,A,At Grade,Manhattan,Rockaways,40.660476,-73.830301,POINT(-73.830301 40.660476)
199,199,H04,IND,Rockaway,Broad Channel,Queens,A S,At Grade,Manhattan,Rockaways,40.608382,-73.815925,POINT(-73.815925 40.608382)
200,200,H12,IND,Rockaway,Beach 90 St,Queens,A S,Viaduct,Manhattan,Rockaway Park,40.588034,-73.813641,POINT(-73.813641 40.588034)
201,201,H13,IND,Rockaway,Beach 98 St,Queens,A S,Viaduct,Manhattan,Rockaway Park,40.585307,-73.820558,POINT(-73.820558 40.585307)
202,202,H14,IND,Rockaway,Beach 105 St,Queens,A S,Viaduct,Manhattan,Rockaway Park,40.583209,-73.827559,POINT(-73.827559 40.583209)
203,203,H15,IND,Rockaway,Rockaway Park - Beach 116 St,Queens,A S,At Grade,Manhattan,,40.580903,-73.835592,POINT(-73.835592 40.580903)
204,204,H06,IND,Rockaway,Beach 67 St,Queens,A,Viaduct,Manhattan,Far Rockaway,40.590927,-73.796924,POINT(-73.796924 40.590927)
205,205,H07,IND,Rockaway,Beach 60 St,Queens,A,Viaduct,Manhattan,Far Rockaway,40.592374,-73.788522,POINT(-73.788522 40.592374)
206,206,H08,IND,Rockaway,Beach 44 St,Queens,A,Viaduct,Manhattan,Far Rockaway,40.592943,-73.776013,POINT(-73.776013 40.592943)
207,207,H09,IND,Rockaway,Beach 36 St,Queens,A,Viaduct,Manhattan,Far Rockaway,40.595398,-73.768175,POINT(-73.768175 40.595398)
208,208,H10,IND,Rockaway,Beach 25 St,Queens,A,Viaduct,Manhattan,Far Rockaway,40.600066,-73.761353,POINT(-73.761353 40.600066)
209,209,H11,IND,Rockaway,Far Rockaway - Mott Av,Queens,A,Viaduct,Manhattan,,40.603995,-73.755405,POINT(-73.755405 40.603995)
210,210,D01,IND,Concourse,Norwood - 205 St,Bronx,D,Subway,,Manhattan,40.874811,-73.878855,POINT(-73.878855 40.874811)
211,211,D03,IND,Concourse,Bedford Park Blvd,Bronx,B D,Subway,Norwood - 205 St,Manhattan,40.873244,-73.887138,POINT(-73.887138 40.873244)
212,212,D04,IND,Concourse,Kingsbridge Rd,Bronx,B D,Subway,Bedford Pk Blvd & 205 St,Manhattan,40.866978,-73.893509,POINT(-73.893509 40.866978)
213,213,D05,IND,Concourse,Fordham Rd,Bronx,B D,Subway,Bedford Pk Blvd & 205 St,Manhattan,40.861296,-73.897749,POINT(-73.897749 40.861296)
214,214,D06,IND,Concourse,182-183 Sts,Bronx,B D,Subway,Bedford Pk Blvd & 205 St,Manhattan,40.856093,-73.900741,POINT(-73.900741 40.856093)
215,215,D07,IND,Concourse,Tremont Av,Bronx,B D,Subway,Bedford Pk Blvd & 205 St,Manhattan,40.85041,-73.905227,POINT(-73.905227 40.85041)
216,216,D08,IND,Concourse,174-175 Sts,Bronx,B D,Subway,Bedford Pk Blvd & 205 St,Manhattan,40.8459,-73.910136,POINT(-73.910136 40.8459)
217,217,D09,IND,Concourse,170 St,Bronx,B D,Subway,Bedford Pk Blvd & 205 St,Manhattan,40.839306,-73.9134,POINT(-73.9134 40.839306)
218,218,D10,IND,Concourse,167 St,Bronx,B D,Subway,Bedford Pk Blvd & 205 St,Manhattan,40.833771,-73.91844,POINT(-73.91844 40.833771)
219,604,D11,IND,Concourse,161 St - Yankee Stadium,Bronx,B D,Subway,Bedford Pk Blvd & 205 St,Manhattan,40.827905,-73.925651,POINT(-73.925651 40.827905)
220,220,D12,IND,Concourse,155 St,Manhattan,B D,Subway,The Bronx,Downtown & Brooklyn,40.830135,-73.938209,POINT(-73.938209 40.830135)
221,221,B04,IND,63rd St,21 St - Queensbridge,Queens,F,Subway,Jamaica,Manhattan,40.754203,-73.942836,POINT(-73.942836 40.754203)
222,222,B06,IND,63rd St,Roosevelt Island,Manhattan,F,Subway,Queens,Manhattan,40.759145,-73.95326,POINT(-73.95326 40.759145)
223,223,B08,IND,63rd St,Lexington Av/63 St,Manhattan,F Q,Subway,Uptown - Queens,Downtown & Brooklyn,40.764629,-73.966113,POINT(-73.966113 40.764629)
224,224,B10,IND,6th Av - Culver,57 St,Manhattan,F,Subway,Uptown & Queens,Downtown & Brooklyn,40.763972,-73.97745,POINT(-73.97745 40.763972)
225,225,D15,IND,6th Av - Culver,47-50 Sts - Rockefeller Ctr,Manhattan,B D F M,Subway,Uptown & The Bronx - Queens,Downtown & Brooklyn,40.758663,-73.981329,POINT(-73.981329 40.758663)
226,609,D16,IND,6th Av - Culver,42 St - Bryant Pk,Manhattan,B D F M,Subway,Uptown & The Bronx - Queens,Downtown & Brooklyn,40.754222,-73.984569,POINT(-73.984569 40.754222)
227,607,D17,IND,6th Av - Culver,34 St - Herald Sq,Manhattan,B D F M,Subway,Uptown & The Bronx - Queens,Downtown & Brooklyn,40.749719,-73.987823,POINT(-73.987823 40.749719)
228,228,D18,IND,6th Av - Culver,23 St,Manhattan,F M,Subway,Uptown & Queens,Downtown & Brooklyn,40.742878,-73.992821,POINT(-73.992821 40.742878)
229,601,D19,IND,6th Av - Culver,14 St,Manhattan,F M,Subway,Uptown & Queens,Downtown & Brooklyn,40.738228,-73.996209,POINT(-73.996209 40.738228)
230,619,D21,IND,6th Av - Culver,Broadway-Lafayette St,Manhattan,B D F M,Subway,Uptown & The Bronx - Queens,Downtown & Brooklyn,40.725297,-73.996204,POINT(-73.996204 40.725297)
231,231,D22,IND,6th Av - Culver,Grand St,Manhattan,B D,Subway,Uptown & The Bronx,Brooklyn,40.718267,-73.993753,POINT(-73.993753 40.718267)
232,232,F14,IND,6th Av - Culver,2 Av,Manhattan,F,Subway,Uptown & Queens,Downtown & Brooklyn,40.723402,-73.989938,POINT(-73.989938 40.723402)
233,625,F15,IND,6th Av - Culver,Delancey St,Manhattan,F,Subway,Uptown & Queens,Downtown & Brooklyn,40.718611,-73.988114,POINT(-73.988114 40.718611)
234,234,F16,IND,6th Av - Culver,East Broadway,Manhattan,F,Subway,Uptown & Queens,Brooklyn,40.713715,-73.990173,POINT(-73.990173 40.713715)
235,235,F18,IND,6th Av - Culver,York St,Brooklyn,F,Subway,Manhattan,Coney Island,40.701397,-73.986751,POINT(-73.986751 40.701397)
236,236,F20,IND,6th Av - Culver,Bergen St,Brooklyn,F G,Subway,Manhattan - Queens,Church Av - Coney Island,40.686145,-73.990862,POINT(-73.990862 40.686145)
237,237,F21,IND,6th Av - Culver,Carroll St,Brooklyn,F G,Subway,Manhattan - Queens,Church Av - Coney Island,40.680303,-73.995048,POINT(-73.995048 40.680303)
238,238,F22,IND,6th Av - Culver,Smith - 9 Sts,Brooklyn,F G,Viaduct,Manhattan - Queens,Church Av - Coney Island,40.67358,-73.995959,POINT(-73.995959 40.67358)
239,608,F23,IND,6th Av - Culver,4 Av,Brooklyn,F G,Viaduct,Manhattan - Queens,Church Av - Coney Island,40.670272,-73.989779,POINT(-73.989779 40.670272)
240,240,F24,IND,6th Av - Culver,7 Av,Brooklyn,F G,Subway,Manhattan - Queens,Church Av - Coney Island,40.666271,-73.980305,POINT(-73.980305 40.666271)
241,241,F25,IND,6th Av - Culver,15 St - Prospect Park,Brooklyn,F G,Subway,Manhattan - Queens,Church Av - Coney Island,40.660365,-73.979493,POINT(-73.979493 40.660365)
242,242,F26,IND,6th Av - Culver,Fort Hamilton Pkwy,Brooklyn,F G,Subway,Manhattan - Queens,Church Av - Coney Island,40.650782,-73.975776,POINT(-73.975776 40.650782)
243,243,F27,IND,6th Av - Culver,Church Av,Brooklyn,F,Subway,Manhattan,Coney Island,40.644041,-73.979678,POINT(-73.979678 40.644041)
244,244,F29,IND,6th Av - Culver,Ditmas Av,Brooklyn,F,Elevated,Manhattan,Coney Island,40.636119,-73.978172,POINT(-73.978172 40.636119)
245,245,F30,IND,6th Av - Culver,18 Av,Brooklyn,F,Elevated,Manhattan,Coney Island,40.629755,-73.976971,POINT(-73.976971 40.629755)
246,246,F31,IND,6th Av - Culver,Avenue I,Brooklyn,F,Elevated,Manhattan,Coney Island,40.625322,-73.976127,POINT(-73.976127 40.625322)
247,247,F32,IND,6th Av - Culver,Bay Pkwy,Brooklyn,F,Elevated,Manhattan,Coney Island,40.620769,-73.975264,POINT(-73.975264 40.620769)
248,248,F33,IND,6th Av - Culver,Avenue N,Brooklyn,F,Elevated,Manhattan,Coney Island,40.61514,-73.974197,POINT(-73.974197 40.61514)
249,249,F34,IND,6th Av - Culver,Avenue P,Brooklyn,F,Elevated,Manhattan,Coney Island,40.608944,-73.973022,POINT(-73.973022 40.608944)
250,250,F35,IND,6th Av - Culver,Kings Hwy,Brooklyn,F,Elevated,Manhattan,Coney Island,40.603217,-73.972361,POINT(-73.972361 40.603217)
251,251,F36,IND,6th Av - Culver,Avenue U,Brooklyn,F,Elevated,Manhattan,Coney Island,40.596063,-73.973357,POINT(-73.973357 40.596063)
252,252,F38,IND,6th Av - Culver,Avenue X,Brooklyn,F,Elevated,Manhattan,Coney Island,40.58962,-73.97425,POINT(-73.97425 40.58962)
253,253,F39,IND,6th Av - Culver,Neptune Av,Brooklyn,F,Elevated,Manhattan,Stillwell Av,40.581011,-73.974574,POINT(-73.974574 40.581011)
254,254,F01,IND,Queens Blvd,Jamaica - 179 St,Queens,F,Subway,,Manhattan,40.712646,-73.783817,POINT(-73.783817 40.712646)
255,255,F02,IND,Queens Blvd,169 St,Queens,F,Subway,179 St,Manhattan,40.71047,-73.793604,POINT(-73.793604 40.71047)
256,256,F03,IND,Queens Blvd,Parsons Blvd,Queens,F,Subway,179 St,Manhattan,40.707564,-73.803326,POINT(-73.803326 40.707564)
257,257,F04,IND,Queens Blvd,Sutphin Blvd,Queens,F,Subway,179 St,Manhattan,40.70546,-73.810708,POINT(-73.810708 40.70546)
258,258,F05,IND,Queens Blvd,Briarwood - Van Wyck Blvd,Queens,E F,Subway,Jamaica,Manhattan,40.709179,-73.820574,POINT(-73.820574 40.709179)
259,259,F06,IND,Queens Blvd,Kew Gardens - Union Tpke,Queens,E F,Subway,Jamaica,Manhattan,40.714441,-73.831008,POINT(-73.831008 40.714441)
260,260,F07,IND,Queens Blvd,75 Av,Queens,E F,Subway,Jamaica,Manhattan,40.718331,-73.837324,POINT(-73.837324 40.718331)
261,261,G08,IND,Queens Blvd,Forest Hills - 71 Av,Queens,E F M R,Subway,Jamaica,Manhattan,40.721691,-73.844521,POINT(-73.844521 40.721691)
262,262,G09,IND,Queens Blvd,67 Av,Queens,M R,Subway,Forest Hills,Manhattan,40.726523,-73.852719,POINT(-73.852719 40.726523)
263,263,G10,IND,Queens Blvd,63 Dr - Rego Park,Queens,M R,Subway,Forest Hills,Manhattan,40.729846,-73.861604,POINT(-73.861604 40.729846)
264,264,G11,IND,Queens Blvd,Woodhaven Blvd,Queens,M R,Subway,Forest Hills,Manhattan,40.733106,-73.869229,POINT(-73.869229 40.733106)
265,265,G12,IND,Queens Blvd,Grand Av - Newtown,Queens,M R,Subway,Forest Hills,Manhattan,40.737015,-73.877223,POINT(-73.877223 40.737015)
266,266,G13,IND,Queens Blvd,Elmhurst Av,Queens,M R,Subway,Forest Hills,Manhattan,40.742454,-73.882017,POINT(-73.882017 40.742454)
267,616,G14,IND,Queens Blvd,Jackson Hts - Roosevelt Av,Queens,E F M R,Subway,Forest Hills - Jamaica,Manhattan,40.746644,-73.891338,POINT(-73.891338 40.746644)
268,268,G15,IND,Queens Blvd,65 St,Queens,M R,Subway,Forest Hills,Manhattan,40.749669,-73.898453,POINT(-73.898453 40.749669)
269,269,G16,IND,Queens Blvd,Northern Blvd,Queens,M R,Subway,Forest Hills,Manhattan,40.752885,-73.906006,POINT(-73.906006 40.752885)
270,270,G18,IND,Queens Blvd,46 St,Queens,M R,Subway,Forest Hills,Manhattan,40.756312,-73.913333,POINT(-73.913333 40.756312)
271,271,G19,IND,Queens Blvd,Steinway St,Queens,M R,Subway,Forest Hills,Manhattan,40.756879,-73.92074,POINT(-73.92074 40.756879)
272,272,G20,IND,Queens Blvd,36 St,Queens,M R,Subway,Forest Hills,Manhattan,40.752039,-73.928781,POINT(-73.928781 40.752039)
273,273,G21,IND,Queens Blvd,Queens Plaza,Queens,E M R,Subway,Forest Hills - Jamaica,Manhattan,40.748973,-73.937243,POINT(-73.937243 40.748973)
274,606,F09,IND,Queens Blvd,Court Sq,Queens,E M,Subway,Forest Hills - Jamaica,Manhattan,40.747846,-73.946,POINT(-73.946 40.747846)
275,612,F11,IND,Queens Blvd,Lexington Av/53 St,Manhattan,E M,Subway,Queens,Downtown & Brooklyn,40.757552,-73.969055,POINT(-73.969055 40.757552)
276,276,F12,IND,Queens Blvd,5 Av/53 St,Manhattan,E M,Subway,Queens,Downtown & Brooklyn,40.760167,-73.975224,POINT(-73.975224 40.760167)
277,277,D14,IND,Queens Blvd,7 Av,Manhattan,B D E,Subway,Uptown & The Bronx - Queens,Downtown & Brooklyn,40.762862,-73.981637,POINT(-73.981637 40.762862)
278,278,G05,IND,Queens - Archer,Jamaica Center - Parsons/Archer,Queens,E J Z,Subway,,Manhattan,40.702147,-73.801109,POINT(-73.801109 40.702147)
279,279,G06,IND,Queens - Archer,Sutphin Blvd - Archer Av - JFK Airport,Queens,E J Z,Subway,Jamaica Center,Manhattan,40.700486,-73.807969,POINT(-73.807969 40.700486)
280,280,G07,IND,Queens - Archer,Jamaica - Van Wyck,Queens,E,Subway,Jamaica Center,Manhattan,40.702566,-73.816859,POINT(-73.816859 40.702566)
281,606,G22,IND,Crosstown,Court Sq,Queens,G,Subway,,Brooklyn,40.746554,-73.943832,POINT(-73.943832 40.746554)
282,282,G24,IND,Crosstown,21 St,Queens,G,Subway,Court Sq,Brooklyn,40.744065,-73.949724,POINT(-73.949724 40.744065)
283,283,G26,IND,Crosstown,Greenpoint Av,Brooklyn,G,Subway,Queens,Church Av,40.731352,-73.954449,POINT(-73.954449 40.731352)
284,284,G28,IND,Crosstown,Nassau Av,Brooklyn,G,Subway,Queens,Church Av,40.724635,-73.951277,POINT(-73.951277 40.724635)
285,629,G29,IND,Crosstown,Metropolitan Av,Brooklyn,G,Subway,Queens,Church Av,40.712792,-73.951418,POINT(-73.951418 40.712792)
286,286,G30,IND,Crosstown,Broadway,Brooklyn,G,Subway,Queens,Church Av,40.706092,-73.950308,POINT(-73.950308 40.706092)
287,287,G31,IND,Crosstown,Flushing Av,Brooklyn,G,Subway,Queens,Church Av,40.700377,-73.950234,POINT(-73.950234 40.700377)
288,288,G32,IND,Crosstown,Myrtle - Willoughby Avs,Brooklyn,G,Subway,Queens,Church Av,40.694568,-73.949046,POINT(-73.949046 40.694568)
289,289,G33,IND,Crosstown,Bedford - Nostrand Avs,Brooklyn,G,Subway,Queens,Church Av,40.689627,-73.953522,POINT(-73.953522 40.689627)
290,290,G34,IND,Crosstown,Classon Av,Brooklyn,G,Subway,Queens,Church Av,40.688873,-73.96007,POINT(-73.96007 40.688873)
291,291,G35,IND,Crosstown,Clinton - Washington Avs,Brooklyn,G,Subway,Queens,Church Av,40.688089,-73.966839,POINT(-73.966839 40.688089)
292,292,G36,IND,Crosstown,Fulton St,Brooklyn,G,Subway,Queens,Church Av,40.687119,-73.975375,POINT(-73.975375 40.687119)
293,293,101,IRT,Broadway - 7Av,Van Cortlandt Park - 242 St,Bronx,1,Elevated,,Manhattan,40.889248,-73.898583,POINT(-73.898583 40.889248)
294,294,103,IRT,Broadway - 7Av,238 St,Bronx,1,Elevated,242 St,Manhattan,40.884667,-73.90087,POINT(-73.90087 40.884667)
295,295,104,IRT,Broadway - 7Av,231 St,Bronx,1,Elevated,242 St,Manhattan,40.878856,-73.904834,POINT(-73.904834 40.878856)
296,296,106,IRT,Broadway - 7Av,Marble Hill - 225 St,Manhattan,1,Elevated,242 St,Downtown,40.874561,-73.909831,POINT(-73.909831 40.874561)
297,297,107,IRT,Broadway - 7Av,215 St,Manhattan,1,Elevated,The Bronx,Downtown,40.869444,-73.915279,POINT(-73.915279 40.869444)
298,298,108,IRT,Broadway - 7Av,207 St,Manhattan,1,Elevated,Uptown & The Bronx,Downtown,40.864621,-73.918822,POINT(-73.918822 40.864621)
299,299,109,IRT,Broadway - 7Av,Dyckman St,Manhattan,1,Elevated,Uptown & The Bronx,Downtown,40.860531,-73.925536,POINT(-73.925536 40.860531)
300,300,110,IRT,Broadway - 7Av,191 St,Manhattan,1,Subway,Uptown & The Bronx,Downtown,40.855225,-73.929412,POINT(-73.929412 40.855225)
301,301,111,IRT,Broadway - 7Av,181 St,Manhattan,1,Subway,Uptown & The Bronx,Downtown,40.849505,-73.933596,POINT(-73.933596 40.849505)
302,605,112,IRT,Broadway - 7Av,168 St - Washington Hts,Manhattan,1,Subway,Uptown & The Bronx,Downtown,40.840556,-73.940133,POINT(-73.940133 40.840556)
303,303,113,IRT,Broadway - 7Av,157 St,Manhattan,1,Subway,Uptown & The Bronx,Downtown,40.834041,-73.94489,POINT(-73.94489 40.834041)
304,304,114,IRT,Broadway - 7Av,145 St,Manhattan,1,Subway,Uptown & The Bronx,Downtown,40.826551,-73.95036,POINT(-73.95036 40.826551)
305,305,115,IRT,Broadway - 7Av,137 St - City College,Manhattan,1,Subway,Uptown & The Bronx,Downtown,40.822008,-73.953676,POINT(-73.953676 40.822008)
306,306,116,IRT,Broadway - 7Av,125 St,Manhattan,1,Elevated,Uptown & The Bronx,Downtown,40.815581,-73.958372,POINT(-73.958372 40.815581)
307,307,117,IRT,Broadway - 7Av,116 St - Columbia University,Manhattan,1,Subway,Uptown & The Bronx,Downtown,40.807722,-73.96411,POINT(-73.96411 40.807722)
308,308,118,IRT,Broadway - 7Av,Cathedral Pkwy,Manhattan,1,Subway,Uptown & The Bronx,Downtown,40.803967,-73.966847,POINT(-73.966847 40.803967)
309,309,119,IRT,Broadway - 7Av,103 St,Manhattan,1,Subway,Uptown & The Bronx,Downtown,40.799446,-73.968379,POINT(-73.968379 40.799446)
310,310,120,IRT,Broadway - 7Av,96 St,Manhattan,1 2 3,Subway,Uptown & The Bronx,Downtown & Brooklyn,40.793919,-73.972323,POINT(-73.972323 40.793919)
311,311,121,IRT,Broadway - 7Av,86 St,Manhattan,1,Subway,Uptown & The Bronx,Downtown,40.788644,-73.976218,POINT(-73.976218 40.788644)
312,312,122,IRT,Broadway - 7Av,79 St,Manhattan,1,Subway,Uptown & The Bronx,Downtown,40.783934,-73.979917,POINT(-73.979917 40.783934)
313,313,123,IRT,Broadway - 7Av,72 St,Manhattan,1 2 3,Subway,Uptown & The Bronx,Downtown & Brooklyn,40.778453,-73.98197,POINT(-73.98197 40.778453)
314,314,124,IRT,Broadway - 7Av,66 St - Lincoln Center,Manhattan,1,Subway,Uptown & The Bronx,Downtown,40.77344,-73.982209,POINT(-73.982209 40.77344)
315,614,125,IRT,Broadway - 7Av,59 St - Columbus Circle,Manhattan,1,Subway,Uptown & The Bronx,Downtown,40.768247,-73.981929,POINT(-73.981929 40.768247)
316,316,126,IRT,Broadway - 7Av,50 St,Manhattan,1,Subway,Uptown & The Bronx,Downtown,40.761728,-73.983849,POINT(-73.983849 40.761728)
317,611,127,IRT,Broadway - 7Av,Times Sq - 42 St,Manhattan,1 2 3,Subway,Uptown & The Bronx,Downtown & Brooklyn,40.75529,-73.987495,POINT(-73.987495 40.75529)
318,318,128,IRT,Broadway - 7Av,34 St - Penn Station,Manhattan,1 2 3,Subway,Uptown & The Bronx,Downtown & Brooklyn,40.750373,-73.991057,POINT(-73.991057 40.750373)
319,319,129,IRT,Broadway - 7Av,28 St,Manhattan,1,Subway,Uptown & The Bronx,Downtown,40.747215,-73.993365,POINT(-73.993365 40.747215)
320,320,130,IRT,Broadway - 7Av,23 St,Manhattan,1,Subway,Uptown & The Bronx,Downtown,40.744081,-73.995657,POINT(-73.995657 40.744081)
321,321,131,IRT,Broadway - 7Av,18 St,Manhattan,1,Subway,Uptown & The Bronx,Downtown,40.74104,-73.997871,POINT(-73.997871 40.74104)
322,601,132,IRT,Broadway - 7Av,14 St,Manhattan,1 2 3,Subway,Uptown & The Bronx,Downtown & Brooklyn,40.737826,-74.000201,POINT(-74.000201 40.737826)
323,323,133,IRT,Broadway - 7Av,Christopher St - Sheridan Sq,Manhattan,1,Subway,Uptown & The Bronx,Downtown,40.733422,-74.002906,POINT(-74.002906 40.733422)
324,324,134,IRT,Broadway - 7Av,Houston St,Manhattan,1,Subway,Uptown & The Bronx,Downtown,40.728251,-74.005367,POINT(-74.005367 40.728251)
325,325,135,IRT,Broadway - 7Av,Canal St,Manhattan,1,Subway,Uptown & The Bronx,Downtown,40.722854,-74.006277,POINT(-74.006277 40.722854)
326,326,136,IRT,Broadway - 7Av,Franklin St,Manhattan,1,Subway,Uptown & The Bronx,Downtown,40.719318,-74.006886,POINT(-74.006886 40.719318)
327,327,137,IRT,Broadway - 7Av,Chambers St,Manhattan,1 2 3,Subway,Uptown & The Bronx,Downtown & Brooklyn,40.715478,-74.009266,POINT(-74.009266 40.715478)
328,328,138,IRT,Broadway - 7Av,WTC Cortlandt,Manhattan,1,Subway,Uptown & The Bronx,Downtown,40.711835,-74.012188,POINT(-74.012188 40.711835)
329,329,139,IRT,Broadway - 7Av,Rector St,Manhattan,1,Subway,Uptown & The Bronx,Downtown,40.707513,-74.013783,POINT(-74.013783 40.707513)
330,635,142,IRT,Broadway - 7Av,South Ferry,Manhattan,1,Subway,Uptown & The Bronx,,40.702068,-74.013664,POINT(-74.013664 40.702068)
331,624,228,IRT,Clark St,Park Pl,Manhattan,2 3,Subway,Uptown & The Bronx,Downtown & Brooklyn,40.713051,-74.008811,POINT(-74.008811 40.713051)
332,628,229,IRT,Clark St,Fulton St,Manhattan,2 3,Subway,Uptown & The Bronx,Downtown & Brooklyn,40.709416,-74.006571,POINT(-74.006571 40.709416)
333,333,230,IRT,Clark St,Wall St,Manhattan,2 3,Subway,Uptown & The Bronx,Brooklyn,40.706821,-74.0091,POINT(-74.0091 40.706821)
334,334,231,IRT,Clark St,Clark St,Brooklyn,2 3,Subway,Manhattan,Flatbush - New Lots,40.697466,-73.993086,POINT(-73.993086 40.697466)
335,620,232,IRT,Clark St,Borough Hall,Brooklyn,2 3,Subway,Manhattan,Flatbush - New Lots,40.693219,-73.989998,POINT(-73.989998 40.693219)
336,336,233,IRT,Eastern Pky,Hoyt St,Brooklyn,2 3,Subway,Manhattan,Flatbush - New Lots,40.690545,-73.985065,POINT(-73.985065 40.690545)
337,337,234,IRT,Eastern Pky,Nevins St,Brooklyn,2 3 4 5,Subway,Manhattan,Flatbush - Utica - New Lots,40.688246,-73.980492,POINT(-73.980492 40.688246)
338,617,235,IRT,Eastern Pky,Atlantic Av - Barclays Ctr,Brooklyn,2 3,Subway,Manhattan,Flatbush - New Lots,40.684359,-73.977666,POINT(-73.977666 40.684359)
339,339,236,IRT,Eastern Pky,Bergen St,Brooklyn,2 3,Subway,Manhattan,Flatbush - New Lots,40.680829,-73.975098,POINT(-73.975098 40.680829)
340,340,237,IRT,Eastern Pky,Grand Army Plaza,Brooklyn,2 3,Subway,Manhattan,Flatbush - New Lots,40.675235,-73.971046,POINT(-73.971046 40.675235)
341,341,238,IRT,Eastern Pky,Eastern Pkwy - Brooklyn Museum,Brooklyn,2 3,Subway,Manhattan,Flatbush - New Lots,40.671987,-73.964375,POINT(-73.964375 40.671987)
342,626,239,IRT,Eastern Pky,Franklin Av,Brooklyn,2 3 4 5,Subway,Manhattan,Flatbush - Utica - New Lots,40.670682,-73.958131,POINT(-73.958131 40.670682)
343,343,248,IRT,Eastern Pky,Nostrand Av,Brooklyn,3,Subway,Manhattan,New Lots,40.669847,-73.950466,POINT(-73.950466 40.669847)
344,344,249,IRT,Eastern Pky,Kingston Av,Brooklyn,3,Subway,Manhattan,New Lots,40.669399,-73.942161,POINT(-73.942161 40.669399)
345,345,250,IRT,Eastern Pky,Crown Hts - Utica Av,Brooklyn,3 4,Subway,Manhattan,New Lots,40.668897,-73.932942,POINT(-73.932942 40.668897)
346,346,251,IRT,Eastern Pky,Sutter Av - Rutland Rd,Brooklyn,3,Elevated,Manhattan,New Lots,40.664717,-73.92261,POINT(-73.92261 40.664717)
347,347,252,IRT,Eastern Pky,Saratoga Av,Brooklyn,3,Elevated,Manhattan,New Lots,40.661453,-73.916327,POINT(-73.916327 40.661453)
348,348,253,IRT,Eastern Pky,Rockaway Av,Brooklyn,3,Elevated,Manhattan,New Lots,40.662549,-73.908946,POINT(-73.908946 40.662549)
349,349,254,IRT,Eastern Pky,Junius St,Brooklyn,3,Elevated,Manhattan,New Lots,40.663515,-73.902447,POINT(-73.902447 40.663515)
350,350,255,IRT,Eastern Pky,Pennsylvania Av,Brooklyn,3,Elevated,Manhattan,New Lots,40.664635,-73.894895,POINT(-73.894895 40.664635)
351,351,256,IRT,Eastern Pky,Van Siclen Av,Brooklyn,3,Elevated,Manhattan,New Lots,40.665449,-73.889395,POINT(-73.889395 40.665449)
352,352,257,IRT,Eastern Pky,New Lots Av,Brooklyn,3,Elevated,Manhattan,,40.666235,-73.884079,POINT(-73.884079 40.666235)
353,353,241,IRT,Nostrand,President St,Brooklyn,2 5,Subway,Manhattan,Flatbush,40.667883,-73.950683,POINT(-73.950683 40.667883)
354,354,242,IRT,Nostrand,Sterling St,Brooklyn,2 5,Subway,Manhattan,Flatbush,40.662742,-73.95085,POINT(-73.95085 40.662742)
355,355,243,IRT,Nostrand,Winthrop St,Brooklyn,2 5,Subway,Manhattan,Flatbush,40.656652,-73.9502,POINT(-73.9502 40.656652)
356,356,244,IRT,Nostrand,Church Av,Brooklyn,2 5,Subway,Manhattan,Flatbush,40.650843,-73.949575,POINT(-73.949575 40.650843)
357,357,245,IRT,Nostrand,Beverly Rd,Brooklyn,2 5,Subway,Manhattan,Flatbush,40.645098,-73.948959,POINT(-73.948959 40.645098)
358,358,246,IRT,Nostrand,Newkirk Av,Brooklyn,2 5,Subway,Manhattan,Flatbush,40.639967,-73.948411,POINT(-73.948411 40.639967)
359,359,247,IRT,Nostrand,Flatbush Av - Brooklyn College,Brooklyn,2 5,Subway,Manhattan,,40.632836,-73.947642,POINT(-73.947642 40.632836)
360,360,601,IRT,Pelham,Pelham Bay Park,Bronx,6,Elevated,,Manhattan,40.852462,-73.828121,POINT(-73.828121 40.852462)
361,361,602,IRT,Pelham,Buhre Av,Bronx,6,Elevated,Pelham Bay Park,Manhattan,40.84681,-73.832569,POINT(-73.832569 40.84681)
362,362,603,IRT,Pelham,Middletown Rd,Bronx,6,Elevated,Pelham Bay Park,Manhattan,40.843863,-73.836322,POINT(-73.836322 40.843863)
363,363,604,IRT,Pelham,Westchester Sq - E Tremont Av,Bronx,6,Elevated,Pelham Bay Park,Manhattan,40.839892,-73.842952,POINT(-73.842952 40.839892)
364,364,606,IRT,Pelham,Zerega Av,Bronx,6,Elevated,Pelham Bay Park,Manhattan,40.836488,-73.847036,POINT(-73.847036 40.836488)
365,365,607,IRT,Pelham,Castle Hill Av,Bronx,6,Elevated,Pelham Bay Park,Manhattan,40.834255,-73.851222,POINT(-73.851222 40.834255)
366,366,608,IRT,Pelham,Parkchester,Bronx,6,Elevated,Pelham Bay Park,Manhattan,40.833226,-73.860816,POINT(-73.860816 40.833226)
367,367,609,IRT,Pelham,St Lawrence Av,Bronx,6,Elevated,Pelham Bay Park,Manhattan,40.831509,-73.867618,POINT(-73.867618 40.831509)
368,368,610,IRT,Pelham,Morrison Av- Sound View,Bronx,6,Elevated,Pelham Bay Park,Manhattan,40.829521,-73.874516,POINT(-73.874516 40.829521)
369,369,611,IRT,Pelham,Elder Av,Bronx,6,Elevated,Pelham Bay Park,Manhattan,40.828584,-73.879159,POINT(-73.879159 40.828584)
370,370,612,IRT,Pelham,Whitlock Av,Bronx,6,Elevated,Pelham Bay Park,Manhattan,40.826525,-73.886283,POINT(-73.886283 40.826525)
371,371,613,IRT,Pelham,Hunts Point Av,Bronx,6,Subway,Pelham Bay Park,Manhattan,40.820948,-73.890549,POINT(-73.890549 40.820948)
372,372,614,IRT,Pelham,Longwood Av,Bronx,6,Subway,Pelham Bay Park,Manhattan,40.816104,-73.896435,POINT(-73.896435 40.816104)
373,373,615,IRT,Pelham,E 149 St,Bronx,6,Subway,Pelham Bay Park,Manhattan,40.812118,-73.904098,POINT(-73.904098 40.812118)
374,374,616,IRT,Pelham,E 143 St - St Mary's St,Bronx,6,Subway,Pelham Bay Park,Manhattan,40.808719,-73.907657,POINT(-73.907657 40.808719)
375,375,617,IRT,Pelham,Cypress Av,Bronx,6,Subway,Pelham Bay Park,Manhattan,40.805368,-73.914042,POINT(-73.914042 40.805368)
376,376,618,IRT,Pelham,Brook Av,Bronx,6,Subway,Pelham Bay Park,Manhattan,40.807566,-73.91924,POINT(-73.91924 40.807566)
377,377,619,IRT,Pelham,3 Av - 138 St,Bronx,6,Subway,Pelham Bay Park,Manhattan,40.810476,-73.926138,POINT(-73.926138 40.810476)
378,378,401,IRT,Jerome Av,Woodlawn,Bronx,4,Elevated,,Manhattan,40.886037,-73.878751,POINT(-73.878751 40.886037)
379,379,402,IRT,Jerome Av,Mosholu Pkwy,Bronx,4,Elevated,Woodlawn,Manhattan,40.87975,-73.884655,POINT(-73.884655 40.87975)
380,380,405,IRT,Jerome Av,Bedford Park Blvd - Lehman College,Bronx,4,Elevated,Woodlawn,Manhattan,40.873412,-73.890064,POINT(-73.890064 40.873412)
381,381,406,IRT,Jerome Av,Kingsbridge Rd,Bronx,4,Elevated,Woodlawn,Manhattan,40.86776,-73.897174,POINT(-73.897174 40.86776)
382,382,407,IRT,Jerome Av,Fordham Rd,Bronx,4,Elevated,Woodlawn,Manhattan,40.862803,-73.901034,POINT(-73.901034 40.862803)
383,383,408,IRT,Jerome Av,183 St,Bronx,4,Elevated,Woodlawn,Manhattan,40.858407,-73.903879,POINT(-73.903879 40.858407)
384,384,409,IRT,Jerome Av,Burnside Av,Bronx,4,Elevated,Woodlawn,Manhattan,40.853453,-73.907684,POINT(-73.907684 40.853453)
385,385,410,IRT,Jerome Av,176 St,Bronx,4,Elevated,Woodlawn,Manhattan,40.84848,-73.911794,POINT(-73.911794 40.84848)
386,386,411,IRT,Jerome Av,Mt Eden Av,Bronx,4,Elevated,Woodlawn,Manhattan,40.844434,-73.914685,POINT(-73.914685 40.844434)
387,387,412,IRT,Jerome Av,170 St,Bronx,4,Elevated,Woodlawn,Manhattan,40.840075,-73.917791,POINT(-73.917791 40.840075)
388,388,413,IRT,Jerome Av,167 St,Bronx,4,Elevated,Woodlawn,Manhattan,40.835537,-73.9214,POINT(-73.9214 40.835537)
389,604,414,IRT,Jerome Av,161 St - Yankee Stadium,Bronx,4,Elevated,Woodlawn,Manhattan,40.827994,-73.925831,POINT(-73.925831 40.827994)
390,603,415,IRT,Jerome Av,149 St - Grand Concourse,Bronx,4,Subway,Woodlawn,Manhattan,40.818375,-73.927351,POINT(-73.927351 40.818375)
391,391,416,IRT,Jerome Av,138 St - Grand Concourse,Bronx,4 5,Subway,Woodlawn - Eastchester Dyre Av,Manhattan,40.813224,-73.929849,POINT(-73.929849 40.813224)
392,392,621,IRT,Lexington Av,125 St,Manhattan,4 5 6,Subway,The Bronx,Downtown & Brooklyn,40.804138,-73.937594,POINT(-73.937594 40.804138)
393,393,622,IRT,Lexington Av,116 St,Manhattan,6,Subway,Uptown & The Bronx,Downtown,40.798629,-73.941617,POINT(-73.941617 40.798629)
394,394,623,IRT,Lexington Av,110 St,Manhattan,6,Subway,Uptown & The Bronx,Downtown,40.79502,-73.94425,POINT(-73.94425 40.79502)
395,395,624,IRT,Lexington Av,103 St,Manhattan,6,Subway,Uptown & The Bronx,Downtown,40.7906,-73.947478,POINT(-73.947478 40.7906)
396,396,625,IRT,Lexington Av,96 St,Manhattan,6,Subway,Uptown & The Bronx,Downtown,40.785672,-73.95107,POINT(-73.95107 40.785672)
397,397,626,IRT,Lexington Av,86 St,Manhattan,4 5 6,Subway,Uptown & The Bronx,Downtown & Brooklyn,40.779492,-73.955589,POINT(-73.955589 40.779492)
398,398,627,IRT,Lexington Av,77 St,Manhattan,6,Subway,Uptown & The Bronx,Downtown,40.77362,-73.959874,POINT(-73.959874 40.77362)
399,399,628,IRT,Lexington Av,68 St - Hunter College,Manhattan,6,Subway,Uptown & The Bronx,Downtown,40.768141,-73.96387,POINT(-73.96387 40.768141)
400,613,629,IRT,Lexington Av,59 St,Manhattan,4 5 6,Subway,Uptown & The Bronx,Downtown & Brooklyn,40.762526,-73.967967,POINT(-73.967967 40.762526)
401,612,630,IRT,Lexington Av,51 St,Manhattan,6,Subway,Uptown & The Bronx,Downtown,40.757107,-73.97192,POINT(-73.97192 40.757107)
402,610,631,IRT,Lexington Av,Grand Central - 42 St,Manhattan,4 5 6,Subway,Uptown & The Bronx,Downtown & Brooklyn,40.751776,-73.976848,POINT(-73.976848 40.751776)
403,403,632,IRT,Lexington Av,33 St,Manhattan,6,Subway,Uptown & The Bronx,Downtown,40.746081,-73.982076,POINT(-73.982076 40.746081)
404,404,633,IRT,Lexington Av,28 St,Manhattan,6,Subway,Uptown & The Bronx,Downtown,40.74307,-73.984264,POINT(-73.984264 40.74307)
405,405,634,IRT,Lexington Av,23 St,Manhattan,6,Subway,Uptown & The Bronx,Downtown,40.739864,-73.986599,POINT(-73.986599 40.739864)
406,602,635,IRT,Lexington Av,14 St - Union Sq,Manhattan,4 5 6,Subway,Uptown & The Bronx,Downtown & Brooklyn,40.734673,-73.989951,POINT(-73.989951 40.734673)
407,407,636,IRT,Lexington Av,Astor Pl,Manhattan,6,Subway,Uptown & The Bronx,Downtown,40.730054,-73.99107,POINT(-73.99107 40.730054)
408,619,637,IRT,Lexington Av,Bleecker St,Manhattan,6,Subway,Uptown & The Bronx,Downtown,40.725915,-73.994659,POINT(-73.994659 40.725915)
409,409,638,IRT,Lexington Av,Spring St,Manhattan,6,Subway,Uptown & The Bronx,Downtown,40.722301,-73.997141,POINT(-73.997141 40.722301)
410,623,639,IRT,Lexington Av,Canal St,Manhattan,6,Subway,Uptown & The Bronx,Downtown,40.718803,-74.000193,POINT(-74.000193 40.718803)
411,622,640,IRT,Lexington Av,Brooklyn Bridge - City Hall,Manhattan,4 5 6,Subway,Uptown & The Bronx,Downtown & Brooklyn,40.713065,-74.004131,POINT(-74.004131 40.713065)
412,628,418,IRT,Lexington Av,Fulton St,Manhattan,4 5,Subway,Uptown & The Bronx,Downtown & Brooklyn,40.710368,-74.009509,POINT(-74.009509 40.710368)
413,413,419,IRT,Lexington Av,Wall St,Manhattan,4 5,Subway,Uptown & The Bronx,Downtown & Brooklyn,40.707557,-74.011862,POINT(-74.011862 40.707557)
414,414,420,IRT,Lexington Av,Bowling Green,Manhattan,4 5,Subway,Uptown & The Bronx,Brooklyn,40.704817,-74.014065,POINT(-74.014065 40.704817)
415,620,423,IRT,Eastern Pky,Borough Hall,Brooklyn,4 5,Subway,Manhattan,Flatbush - Utica,40.692404,-73.990151,POINT(-73.990151 40.692404)
416,416,201,IRT,Lenox - White Plains Rd,Wakefield - 241 St,Bronx,2,Elevated,,Manhattan,40.903125,-73.85062,POINT(-73.85062 40.903125)
417,417,204,IRT,Lenox - White Plains Rd,Nereid Av,Bronx,2 5,Elevated,Wakefield - 241 St,Manhattan,40.898379,-73.854376,POINT(-73.854376 40.898379)
418,418,205,IRT,Lenox - White Plains Rd,233 St,Bronx,2 5,Elevated,Wakefield - 241 St,Manhattan,40.893193,-73.857473,POINT(-73.857473 40.893193)
419,419,206,IRT,Lenox - White Plains Rd,225 St,Bronx,2 5,Elevated,Wakefield - 241 St,Manhattan,40.888022,-73.860341,POINT(-73.860341 40.888022)
420,420,207,IRT,Lenox - White Plains Rd,219 St,Bronx,2 5,Elevated,Wakefield - 241 St,Manhattan,40.883895,-73.862633,POINT(-73.862633 40.883895)
421,421,208,IRT,Lenox - White Plains Rd,Gun Hill Rd,Bronx,2 5,Elevated,Wakefield - 241 St,Manhattan,40.87785,-73.866256,POINT(-73.866256 40.87785)
422,422,209,IRT,Lenox - White Plains Rd,Burke Av,Bronx,2 5,Elevated,Wakefield - 241 St,Manhattan,40.871356,-73.867164,POINT(-73.867164 40.871356)
423,423,210,IRT,Lenox - White Plains Rd,Allerton Av,Bronx,2 5,Elevated,Wakefield - 241 St,Manhattan,40.865462,-73.867352,POINT(-73.867352 40.865462)
424,424,211,IRT,Lenox - White Plains Rd,Pelham Pkwy,Bronx,2 5,Elevated,Wakefield - 241 St,Manhattan,40.857192,-73.867615,POINT(-73.867615 40.857192)
425,425,212,IRT,Lenox - White Plains Rd,Bronx Park East,Bronx,2 5,Elevated,Wakefield - 241 St,Manhattan,40.848828,-73.868457,POINT(-73.868457 40.848828)
426,426,213,IRT,Lenox - White Plains Rd,E 180 St,Bronx,2 5,Elevated,Wakefield - Eastchester,Manhattan,40.841894,-73.873488,POINT(-73.873488 40.841894)
427,427,214,IRT,Lenox - White Plains Rd,West Farms Sq - E Tremont Av,Bronx,2 5,Elevated,Wakefield - Eastchester,Manhattan,40.840295,-73.880049,POINT(-73.880049 40.840295)
428,428,215,IRT,Lenox - White Plains Rd,174 St,Bronx,2 5,Elevated,Wakefield - Eastchester,Manhattan,40.837288,-73.887734,POINT(-73.887734 40.837288)
429,429,216,IRT,Lenox - White Plains Rd,Freeman St,Bronx,2 5,Elevated,Wakefield - Eastchester,Manhattan,40.829993,-73.891865,POINT(-73.891865 40.829993)
430,430,217,IRT,Lenox - White Plains Rd,Simpson St,Bronx,2 5,Elevated,Wakefield - Eastchester,Manhattan,40.824073,-73.893064,POINT(-73.893064 40.824073)
431,431,218,IRT,Lenox - White Plains Rd,Intervale Av,Bronx,2 5,Elevated,Wakefield - Eastchester,Manhattan,40.822181,-73.896736,POINT(-73.896736 40.822181)
432,432,219,IRT,Lenox - White Plains Rd,Prospect Av,Bronx,2 5,Elevated,Wakefield - Eastchester,Manhattan,40.819585,-73.90177,POINT(-73.90177 40.819585)
433,433,220,IRT,Lenox - White Plains Rd,Jackson Av,Bronx,2 5,Elevated,Wakefield - Eastchester,Manhattan,40.81649,-73.907807,POINT(-73.907807 40.81649)
434,434,221,IRT,Lenox - White Plains Rd,3 Av - 149 St,Bronx,2 5,Subway,Wakefield - Eastchester,Manhattan,40.816109,-73.917757,POINT(-73.917757 40.816109)
435,603,222,IRT,Lenox - White Plains Rd,149 St - Grand Concourse,Bronx,2 5,Subway,Wakefield - Eastchester,Manhattan,40.81841,-73.926718,POINT(-73.926718 40.81841)
436,436,301,IRT,Lenox - White Plains Rd,Harlem - 148 St,Manhattan,3,Subway,,Downtown & Brooklyn,40.82388,-73.93647,POINT(-73.93647 40.82388)
437,437,302,IRT,Lenox - White Plains Rd,145 St,Manhattan,3,Subway,148 St,Downtown & Brooklyn,40.820421,-73.936245,POINT(-73.936245 40.820421)
438,438,224,IRT,Lenox - White Plains Rd,135 St,Manhattan,2 3,Subway,Uptown & The Bronx,Downtown & Brooklyn,40.814229,-73.94077,POINT(-73.94077 40.814229)
439,439,225,IRT,Lenox - White Plains Rd,125 St,Manhattan,2 3,Subway,Uptown & The Bronx,Downtown & Brooklyn,40.807754,-73.945495,POINT(-73.945495 40.807754)
440,440,226,IRT,Lenox - White Plains Rd,116 St,Manhattan,2 3,Subway,Uptown & The Bronx,Downtown & Brooklyn,40.802098,-73.949625,POINT(-73.949625 40.802098)
441,441,227,IRT,Lenox - White Plains Rd,Central Park North (110 St),Manhattan,2 3,Subway,Uptown & The Bronx,Downtown & Brooklyn,40.799075,-73.951822,POINT(-73.951822 40.799075)
442,442,501,IRT,Dyre Av,Eastchester - Dyre Av,Bronx,5,At Grade,,Manhattan,40.8883,-73.830834,POINT(-73.830834 40.8883)
443,443,502,IRT,Dyre Av,Baychester Av,Bronx,5,Open Cut,Eastchester - Dyre Av,Manhattan,40.878663,-73.838591,POINT(-73.838591 40.878663)
444,444,503,IRT,Dyre Av,Gun Hill Rd,Bronx,5,Open Cut,Eastchester - Dyre Av,Manhattan,40.869526,-73.846384,POINT(-73.846384 40.869526)
445,445,504,IRT,Dyre Av,Pelham Pkwy,Bronx,5,Open Cut,Eastchester - Dyre Av,Manhattan,40.858985,-73.855359,POINT(-73.855359 40.858985)
446,446,505,IRT,Dyre Av,Morris Park,Bronx,5,Open Cut,Eastchester - Dyre Av,Manhattan,40.854364,-73.860495,POINT(-73.860495 40.854364)
447,447,701,IRT,Flushing,Flushing - Main St,Queens,7,Subway,,Manhattan,40.7596,-73.83003,POINT(-73.83003 40.7596)
448,448,702,IRT,Flushing,Mets - Willets Point,Queens,7,Elevated,Flushing,Manhattan,40.754622,-73.845625,POINT(-73.845625 40.754622)
449,449,705,IRT,Flushing,111 St,Queens,7,Elevated,Flushing,Manhattan,40.75173,-73.855334,POINT(-73.855334 40.75173)
450,450,706,IRT,Flushing,103 St - Corona Plaza,Queens,7,Elevated,Flushing,Manhattan,40.749865,-73.8627,POINT(-73.8627 40.749865)
451,451,707,IRT,Flushing,Junction Blvd,Queens,7,Elevated,Flushing,Manhattan,40.749145,-73.869527,POINT(-73.869527 40.749145)
452,452,708,IRT,Flushing,90 St - Elmhurst Av,Queens,7,Elevated,Flushing,Manhattan,40.748408,-73.876613,POINT(-73.876613 40.748408)
453,453,709,IRT,Flushing,82 St - Jackson Hts,Queens,7,Elevated,Flushing,Manhattan,40.747659,-73.883697,POINT(-73.883697 40.747659)
454,616,710,IRT,Flushing,74 St - Broadway,Queens,7,Elevated,Flushing,Manhattan,40.746848,-73.891394,POINT(-73.891394 40.746848)
455,455,711,IRT,Flushing,69 St,Queens,7,Elevated,Flushing,Manhattan,40.746325,-73.896403,POINT(-73.896403 40.746325)
456,456,712,IRT,Flushing,Woodside - 61 St,Queens,7,Elevated,Flushing,Manhattan,40.74563,-73.902984,POINT(-73.902984 40.74563)
457,457,713,IRT,Flushing,52 St,Queens,7,Elevated,Flushing,Manhattan,40.744149,-73.912549,POINT(-73.912549 40.744149)
458,458,714,IRT,Flushing,46 St,Queens,7,Elevated,Flushing,Manhattan,40.743132,-73.918435,POINT(-73.918435 40.743132)
459,459,715,IRT,Flushing,40 St,Queens,7,Elevated,Flushing,Manhattan,40.743781,-73.924016,POINT(-73.924016 40.743781)
460,460,716,IRT,Flushing,33 St,Queens,7,Elevated,Flushing,Manhattan,40.744587,-73.930997,POINT(-73.930997 40.744587)
461,461,R09,BMT,Astoria,Queensboro Plaza,Queens,N W,Elevated,Astoria - Flushing,Manhattan,40.750582,-73.940202,POINT(-73.940202 40.750582)
461,461,718,IRT,Flushing,Queensboro Plaza,Queens,7,Elevated,Astoria - Flushing,Manhattan,40.750582,-73.940202,POINT(-73.940202 40.750582)
462,606,719,IRT,Flushing,Court Sq,Queens,7,Elevated,Flushing,Manhattan,40.747023,-73.945264,POINT(-73.945264 40.747023)
463,463,720,IRT,Flushing,Hunters Point Av,Queens,7,Subway,Flushing,Manhattan,40.742216,-73.948916,POINT(-73.948916 40.742216)
464,464,721,IRT,Flushing,Vernon Blvd - Jackson Av,Queens,7,Subway,Flushing,Manhattan,40.742626,-73.953581,POINT(-73.953581 40.742626)
465,610,723,IRT,Flushing,Grand Central - 42 St,Manhattan,7,Subway,Queens,34 St - Hudson Yards,40.751431,-73.976041,POINT(-73.976041 40.751431)
466,609,724,IRT,Flushing,5 Av,Manhattan,7,Subway,Queens,34 St - Hudson Yards,40.753821,-73.981963,POINT(-73.981963 40.753821)
467,611,725,IRT,Flushing,Times Sq - 42 St,Manhattan,7,Subway,Queens,34 St - Hudson Yards,40.755477,-73.987691,POINT(-73.987691 40.755477)
468,611,902,IRT,Lexington - Shuttle,Times Sq - 42 St,Manhattan,S,Subway,,Grand Central,40.755983,-73.986229,POINT(-73.986229 40.755983)
469,610,901,IRT,Lexington - Shuttle,Grand Central - 42 St,Manhattan,S,Subway,Times Sq,,40.752769,-73.979189,POINT(-73.979189 40.752769)
471,471,726,IRT,Flushing,34 St - 11 Av,Manhattan,7,Subway,Queens,,40.755882,-74.00191,POINT(-74.00191 40.755882)
475,475,Q05,IND,Second Av,96 St,Manhattan,Q,Subway,,Downtown & Brooklyn,40.784318,-73.947152,POINT(-73.947152 40.784318)
476,476,Q04,IND,Second Av,86 St,Manhattan,Q,Subway,Uptown,Downtown & Brooklyn,40.777891,-73.951787,POINT(-73.951787 40.777891)
477,477,Q03,IND,Second Av,72 St,Manhattan,Q,Subway,Uptown,Downtown & Brooklyn,40.768799,-73.958424,POINT(-73.958424 40.768799)
501,501,S31,SIR,Staten Island,St George,Staten Island,SIR,Open Cut,,Tottenville,40.643748,-74.073643,POINT(-74.073643 40.643748)
502,502,S30,SIR,Staten Island,Tompkinsville,Staten Island,SIR,At Grade,St George,Tottenville,40.636949,-74.074835,POINT(-74.074835 40.636949)
503,503,S29,SIR,Staten Island,Stapleton,Staten Island,SIR,Elevated,St George,Tottenville,40.627915,-74.075162,POINT(-74.075162 40.627915)
504,504,S28,SIR,Staten Island,Clifton,Staten Island,SIR,Elevated,St George,Tottenville,40.621319,-74.071402,POINT(-74.071402 40.621319)
505,505,S27,SIR,Staten Island,Grasmere,Staten Island,SIR,Open Cut,St George,Tottenville,40.603117,-74.084087,POINT(-74.084087 40.603117)
506,506,S26,SIR,Staten Island,Old Town,Staten Island,SIR,Embankment,St George,Tottenville,40.596612,-74.087368,POINT(-74.087368 40.596612)
507,507,S25,SIR,Staten Island,Dongan Hills,Staten Island,SIR,Embankment,St George,Tottenville,40.588849,-74.09609,POINT(-74.09609 40.588849)
508,508,S24,SIR,Staten Island,Jefferson Av,Staten Island,SIR,Embankment,St George,Tottenville,40.583591,-74.103338,POINT(-74.103338 40.583591)
509,509,S23,SIR,Staten Island,Grant City,Staten Island,SIR,Open Cut,St George,Tottenville,40.578965,-74.109704,POINT(-74.109704 40.578965)
510,510,S22,SIR,Staten Island,New Dorp,Staten Island,SIR,Open Cut,St George,Tottenville,40.57348,-74.11721,POINT(-74.11721 40.57348)
511,511,S21,SIR,Staten Island,Oakwood Heights,Staten Island,SIR,Open Cut,St George,Tottenville,40.56511,-74.12632,POINT(-74.12632 40.56511)
512,512,S20,SIR,Staten Island,Bay Terrace,Staten Island,SIR,Embankment,St George,Tottenville,40.5564,-74.136907,POINT(-74.136907 40.5564)
513,513,S19,SIR,Staten Island,Great Kills,Staten Island,SIR,Open Cut,St George,Tottenville,40.551231,-74.151399,POINT(-74.151399 40.551231)
514,514,S18,SIR,Staten Island,Eltingville,Staten Island,SIR,Embankment,St George,Tottenville,40.544601,-74.16457,POINT(-74.16457 40.544601)
515,515,S17,SIR,Staten Island,Annadale,Staten Island,SIR,Open Cut,St George,Tottenville,40.54046,-74.178217,POINT(-74.178217 40.54046)
516,516,S16,SIR,Staten Island,Huguenot,Staten Island,SIR,Open Cut,St George,Tottenville,40.533674,-74.191794,POINT(-74.191794 40.533674)
517,517,S15,SIR,Staten Island,Prince's Bay,Staten Island,SIR,Open Cut,St George,Tottenville,40.525507,-74.200064,POINT(-74.200064 40.525507)
518,518,S14,SIR,Staten Island,Pleasant Plains,Staten Island,SIR,Embankment,St George,Tottenville,40.52241,-74.217847,POINT(-74.217847 40.52241)
519,519,S13,SIR,Staten Island,Richmond Valley,Staten Island,SIR,Open Cut,St George,Tottenville,40.519631,-74.229141,POINT(-74.229141 40.519631)
522,522,S09,SIR,Staten Island,Tottenville,Staten Island,SIR,At Grade,St George,,40.512764,-74.251961,POINT(-74.251961 40.512764)
523,523,S11,SIR,Staten Island,Arthur Kill,Staten Island,SIR,At Grade,St George,Tottenville,40.516578,-74.242096,POINT(-74.242096 40.516578)
